---
- address: z1iF6ojTtPgYuN5vnsHKw6MPgNiZTWTRqzR
  company: Carroll-Schroeder
  lat: '34.21639'
  lng: '-119.0376'
  moniker: location001
  pk: vmBlxRekz9eCPwkwHCEInyTJpzDAuretPsy8tN2Tv94
  sk: WdCXso1CkPsUXKdcmwsyVLgvkvxEHAPkK8ThDWQC2N--YGXFF6TP14I_CTAcIQifJMmnMMC6t60-zLy03ZO_3g
- address: z1ab34k8EPLQRYHYVxfQx4gf7or7KCYbC9S
  company: Barajas-Franklin
  lat: '42.7392'
  lng: '-84.62081'
  moniker: location002
  pk: 7Sa_iU6s9gwkbbxOqX8SSNfMx_0WfW0GUU31pJTSiH8
  sk: c91wOi94YoyQoIv4nQAvsYIj5h9BOe7k2WyEzKiQrvftJr-JTqz2DCRtvE6pfxJI18zH_RZ9bQZRTfWklNKIfw
- address: z1YLvBYnbz3H2FXqqCEKAAX7oo6APEzB7fV
  company: Phillips-Webster
  lat: '33.50921'
  lng: '-111.89903'
  moniker: location003
  pk: ADD1zauI2OUjEDa-EwMTkXzhzYYW0IenUq3HVu5_3Hg
  sk: Iw6dtk4sec970qukAcomVvt2uaucCWuzYHiUcA58Z4UAMPXNq4jY5SMQNr4TAxORfOHNhhbQh6dSrcdW7n_ceA
- address: z1RjNGkLqx1FJAXiXgZ2tvaRFv63EsS6Y2a
  company: Meadows, Kennedy and Ayers
  lat: '33.92946'
  lng: '-116.97725'
  moniker: location004
  pk: PhZQAMO7MUtTeCM_CnTL8BSVEHRqCxvAJhbmAe6eE50
  sk: TkcW-zI0V8Or5IN8PesWrbFB3quYaLSVgqgBbubojdg-FlAAw7sxS1N4Iz8KdMvwFJUQdGoLG8AmFuYB7p4TnQ
- address: z1iFVRx9JhVVNPomGAaz8yfLUYjT4odp7fT
  company: Gibson, Gordon and Johns
  lat: '39.32288'
  lng: '-76.72803'
  moniker: location005
  pk: q1jS_GtMbj38VuM_aKdmjqtL0yoGUodpkAV6BuqiD7A
  sk: ue4H9How1geAOIzTX7RB9YgQBbTosJvHef2Vx5qpbG2rWNL8a0xuPfxW4z9op2aOq0vTKgZSh2mQBXoG6qIPsA
- address: z1d1ac1DeXg5tif5wR5pXThZq1QyuKvdr4A
  company: Clarke Group
  lat: '39.00622'
  lng: '-77.4286'
  moniker: location006
  pk: CHLgiAwXnuxPaWzdlqK0enzlGQOOD932d82JyLdkcbg
  sk: EY4JZ8NHFWZ2a-9eFtww_Cq9R3auUNRzFnMUew51_qMIcuCIDBee7E9pbN2WorR6fOUZA44P3fZ3zYnIt2RxuA
- address: z1apqvUdkvU9fY4c2xjZbZoCexhY9v2TdNd
  company: Walker-King
  lat: '39.32288'
  lng: '-76.72803'
  moniker: location007
  pk: jZL_9CuhKeJjWTAAuOuXfDvlBZinVXzOiBMoRxl343g
  sk: BLaHJ6hw37vOIfkg71zJqiuPuWlD1DRU0FDDE2rjSF2Nkv_0K6Ep4mNZMAC465d8O-UFmKdVfM6IEyhHGXfjeA
- address: z1bSckfzHFdepSqqvCvBt487SoJiNoWaAXh
  company: Powell LLC
  lat: '44.73941'
  lng: '-93.12577'
  moniker: location008
  pk: E6y4haKKMV1sjCWBMcTPZ0AzyG9TbClMgCSdcWM0KjQ
  sk: Aa1Z61q8VoUVZOqPRuKx8GPZkur5GK76dBcK5WbE0U0TrLiFoooxXWyMJYExxM9nQDPIb1NsKUyAJJ1xYzQqNA
- address: z1dY7uHLkMEwLc8icMS9JErk9KopppbC2N1
  company: Wilson, Goodwin and Thomas
  lat: '32.5007'
  lng: '-94.74049'
  moniker: location009
  pk: d2mX3CsXChxCw38tZNv3DMkuz1yciWtoT07DbOjlWEU
  sk: Zgfee758zJ7jWYwPHVTW6J35H4jWl6DsYUxzL5z5pPV3aZfcKxcKHELDfy1k2_cMyS7PXJyJa2hPTsNs6OVYRQ
- address: z1ViVP4G6aAQ56joVKzcjvWRfTaXqrTuL3H
  company: Wilson, Durham and Gonzalez
  lat: '31.12406'
  lng: '-97.90308'
  moniker: location010
  pk: r6MGt3rLL-3K4M1PpELvObS0Vi4DjblbpAQxubln56U
  sk: ZwN6fc2M2DHVlCAE8zj1Ja-_5BfIUzMZslzUGncYXn2vowa3essv7crgzU-kQu85tLRWLgONuVukBDG5uWfnpQ
- address: z1UfDw7yevc1j3Mybm1n9B43hkkSZSPevpu
  company: Perez-Bullock
  lat: '41.27621'
  lng: '-72.86843'
  moniker: location011
  pk: bb0pFmBwRWuHai4W_OomhVAZojl1cBYNR3dvksIKQBI
  sk: mrdUAbsn-ot8W4hHF7lAPcY8syRjIpfx6n7EghYDu1ZtvSkWYHBFa4dqLhb86iaFUBmiOXVwFg1Hd2-SwgpAEg
- address: z1kWmT8VLZvyqu7vLvzeJSN1GM2fXq9Gkbh
  company: Dean-Anderson
  lat: '34.63915'
  lng: '-120.45794'
  moniker: location012
  pk: 7gaZkWIaMI-YwrbuhICvctqxUhnG-cE2fUm7tanhIVo
  sk: YCFvM49SVkdok3A_KXCTHJ-ms7ojAsfTMDlLT1LMxrHuBpmRYhowj5jCtu6EgK9y2rFSGcb5wTZ9Sbu1qeEhWg
- address: z1T5sgKP4pmH9fn1dCCNcV19ss5s9RMqDTd
  company: Le-Brown
  lat: '39.32011'
  lng: '-76.51552'
  moniker: location013
  pk: kgN8OB5Qf5H9uXj5qJRYlXX6xITenyL5UaNhRIFKWgg
  sk: GxhwH4zQpuNZlIqkGm2fGjJPoicBwyTqO9aZTHMuyzuSA3w4HlB_kf25ePmolFiVdfrEhN6fIvlRo2FEgUpaCA
- address: z1WCoTVdM1fdjd5vUyVewKS4VDwbcwpngqi
  company: Meyer and Sons
  lat: '44.27804'
  lng: '-88.27205'
  moniker: location014
  pk: qE-qJdLwkjIB8TzEpUfJvKCxAcHWBKEe1_Rx40r4xl0
  sk: -caP5Ski7MxUoEWM8_Gw3V98j6UaG5LG5GZeaZcX0kGoT6ol0vCSMgHxPMSlR8m8oLEBwdYEoR7X9HHjSvjGXQ
- address: z1htg3bp2BKTNRWizU7Akc5U3Qu5iwJqkqd
  company: Everett Ltd
  lat: '29.65163'
  lng: '-82.32483'
  moniker: location015
  pk: 1Iq5hn7SW3F0bjhTUoWtWxlhfDecAki7sX6p4lFlxyc
  sk: 5TLdgNWKOXc8xHBkk_Ny2bXyAk_Ccu4IeatWmrkahC_UirmGftJbcXRuOFNSha1bGWF8N5wCSLuxfqniUWXHJw
- address: z1XMMFmiq3MdceVsahqgTeUZUx6Zkow4RnB
  company: Taylor Group
  lat: '33.98154'
  lng: '-81.23621'
  moniker: location016
  pk: r5Bn-vzuTlZ45eRrCelo0eKJjRkgg_oFTJNhR8O9UNg
  sk: pG-kEoZtBTdpztjvA_Xqh7AcxMTqlpO-G4f58Q3TFm6vkGf6_O5OVnjl5GsJ6WjR4omNGSCD-gVMk2FHw71Q2A
- address: z1geKjJbLK3DDykBJ8un45Y6mxaKNnVRtLF
  company: Moore Group
  lat: '37.95143'
  lng: '-91.77127'
  moniker: location017
  pk: syKE30FhpdnjrUDQYAH0QD0VkxYH4MTzaMBmLZB6Ts0
  sk: AbHFsx25wG8OxbR4ePXM3Sy5swnvGBbvU26RQ6C0ViSzIoTfQWGl2eOtQNBgAfRAPRWTFgfgxPNowGYtkHpOzQ
- address: z1hQg1RFvPAKBZ6Q5Sg29gnnTWkgKjwtaHK
  company: Miller Group
  lat: '39.71734'
  lng: '-74.96933'
  moniker: location018
  pk: CBUzOzn-ASWVzC4SMZz89wyJ1Cvwpj9ro-uAQ0TGh0s
  sk: lXuq1F3TD7M6_pOwOKvfTZaRK5-Dw1jkAfFW3qOzPhwIFTM7Of4BJZXMLhIxnPz3DInUK_CmP2uj64BDRMaHSw
- address: z1UDwypBpttiJKPLZybMw9iAoCYv7nmEbFZ
  company: Avery Group
  lat: '43.16547'
  lng: '-77.70066'
  moniker: location019
  pk: 85A6Dr_Xid8FdqZPMxkb5WvKYzSn9jFmnTtIA99GZFw
  sk: 4jzKm1W3iknWgnBYZypCud21DhqutBjKFntTTSVQGGXzkDoOv9eJ3wV2pk8zGRvla8pjNKf2MWadO0gD30ZkXA
- address: z1THgQZYgnodssND9BwDabeLtHiMKtL2CAD
  company: Freeman PLC
  lat: '36.91023'
  lng: '-121.75689'
  moniker: location020
  pk: _JiP7ag4jT211tpUvFrwoVcLq3BmtjfzqKM_8GzT5PE
  sk: qKAS4voeUCcIfUq6YtZZ-167s8mZ2afj4lEZYL2vglf8mI_tqDiNPbXW2lS8WvChVwurcGa2N_Oooz_wbNPk8Q
